[{"City_Name":"Mumbai","Total_Count":92660,"Latitude":19.0748,"Longitude":72.8856},{"City_Name":"Pune","Total_Count":83453,"Latitude":18.5213,"Longitude":73.8523},{"City_Name":"Kolkata","Total_Count":72253,"Latitude":22.5655,"Longitude":88.3653},{"City_Name":"New Delhi","Total_Count":69568,"Latitude":28.6331,"Longitude":77.2207},{"City_Name":"Bengaluru","Total_Count":56558,"Latitude":12.9721,"Longitude":77.5933},{"City_Name":"Ahmedabad","Total_Count":48695,"Latitude":23.0276,"Longitude":72.5871},{"City_Name":"Hyderabad","Total_Count":43919,"Latitude":17.3846,"Longitude":78.4574},{"City_Name":"Surat","Total_Count":41122,"Latitude":21.198,"Longitude":72.83},{"City_Name":"Chennai","Total_Count":25207,"Latitude":13.086,"Longitude":80.2751},{"City_Name":"Bhubaneswar","Total_Count":21164,"Latitude":20.2713,"Longitude":85.8334}]